City,Lat,Lng,Max temp,Humidity,Cloudiness,Wind speed,Country,Date
Upernavik,72.79,-56.15,10.04,83,46,3.87,GL,12/17/20 13:31
Castro,-24.79,-50.01,71.69,87,27,7.65,BR,12/17/20 13:35
Vaini,-21.2,-175.2,75.2,83,90,10.29,TO,12/17/20 13:35
Mataura,-46.19,168.86,53.01,90,100,1.01,NZ,12/17/20 13:35
Naze,28.37,129.48,57.2,58,75,9.17,JP,12/17/20 13:35
Melville,40.79,-73.42,32.0,74,75,19.46,US,12/17/20 13:34
Nortelândia,-14.45,-56.8,93.94,42,72,3.56,BR,12/17/20 13:35
Bethel,41.37,-73.41,32.0,96,99,19.46,US,12/17/20 13:35
Nome,64.5,-165.41,0.0,64,1,14.99,US,12/17/20 13:35
Punta Arenas,-53.15,-70.92,55.4,43,0,31.09,CL,12/17/20 13:33
Aldan,58.6,125.39,-26.84,84,100,4.81,RU,12/17/20 13:35
Bull Savanna,17.89,-77.59,80.58,67,1,6.26,JM,12/17/20 13:35
Hermanus,-34.42,19.23,64.0,62,15,14.47,ZA,12/17/20 13:35
Hilo,19.73,-155.09,68.0,87,100,1.81,US,12/17/20 13:31
Khatanga,71.97,102.5,-25.69,82,0,9.53,RU,12/17/20 13:35
Provideniya,64.38,-173.3,9.09,92,100,20.65,RU,12/17/20 13:35
Busselton,-33.65,115.33,55.0,81,0,5.01,AU,12/17/20 13:35
Avarua,-21.21,-159.78,80.6,78,100,9.17,CK,12/17/20 13:33
Kahului,20.89,-156.47,73.0,82,1,7.0,US,12/17/20 13:33
Rey Bouba,8.67,14.18,80.42,16,0,3.62,CM,12/17/20 13:35
Verāval,20.9,70.37,69.58,45,0,14.88,IN,12/17/20 13:35
Saint-Philippe,-21.36,55.77,77.0,83,20,14.99,RE,12/17/20 13:35
Hualmay,-11.1,-77.61,73.8,67,87,11.61,PE,12/17/20 13:35
Jamestown,42.1,-79.24,30.99,79,90,5.82,US,12/17/20 13:35
Fonte Boa,-2.5,-66.27,88.99,57,92,4.0,BR,12/17/20 13:35
Nelson Bay,-32.72,152.15,71.6,94,0,5.37,AU,12/17/20 13:35
Marystown,47.17,-55.15,29.57,92,89,4.79,CA,12/17/20 13:35
Yellowknife,62.46,-114.35,-32.01,66,90,8.05,CA,12/17/20 13:32
San Patricio,28.02,-97.52,62.01,36,1,10.29,US,12/17/20 13:35
Kroya,-7.63,109.25,76.48,88,100,10.76,ID,12/17/20 13:35
Mount Gambier,-37.83,140.77,51.8,71,90,6.93,AU,12/17/20 13:35
Leningradskiy,69.38,178.42,11.5,94,100,18.01,RU,12/17/20 13:35
Coyhaique,-45.58,-72.07,64.4,48,75,9.17,CL,12/17/20 13:35
Ponta Delgada,37.73,-25.67,62.6,93,40,16.11,PT,12/17/20 13:35
Lavrentiya,65.58,-171.0,7.79,93,100,22.1,RU,12/17/20 13:35
Nurota,40.56,65.69,21.2,73,0,6.93,UZ,12/17/20 13:35
Kulhudhuffushi,6.62,73.07,81.48,68,100,0.72,MV,12/17/20 13:35
Tiksi,71.69,128.87,-14.71,89,100,4.34,RU,12/17/20 13:35
Clarksburg,39.28,-80.34,35.01,86,90,5.82,US,12/17/20 13:35
Cabedelo,-6.98,-34.83,84.2,70,75,14.99,BR,12/17/20 13:35
Kenora,49.82,-94.43,24.8,85,90,6.93,CA,12/17/20 13:35
Saskylakh,71.92,114.08,-33.21,83,88,2.71,RU,12/17/20 13:35
Vestmanna,62.16,-7.17,44.6,87,8,13.87,FO,12/17/20 13:35
Rikitea,-23.12,-134.97,77.0,75,92,15.95,PF,12/17/20 13:35
Pisco,-13.7,-76.22,73.4,69,0,8.05,PE,12/17/20 13:33
Komsomolets,53.75,62.07,17.51,96,100,9.04,KZ,12/17/20 13:35
Port Lincoln,-34.73,135.87,57.07,65,99,9.13,AU,12/17/20 13:35
Kamen'-na-Obi,53.79,81.34,13.77,93,100,14.65,RU,12/17/20 13:35
Nouadhibou,20.93,-17.03,71.6,68,0,17.22,MR,12/17/20 13:33
Baião,-2.79,-49.67,89.53,55,98,3.87,BR,12/17/20 13:35
Mitsamiouli,-11.38,43.28,82.02,72,0,9.75,KM,12/17/20 13:35
Bredasdorp,-34.53,20.04,64.4,68,0,8.05,ZA,12/17/20 13:35
Don Sak,9.32,99.69,75.2,100,40,1.12,TH,12/17/20 13:35
Key West,24.56,-81.78,80.6,78,40,8.05,US,12/17/20 13:35
Puerto Ayora,-0.74,-90.35,80.6,61,0,19.46,EC,12/17/20 13:35
Waipawa,-41.41,175.52,64.0,87,79,3.36,NZ,12/17/20 13:35
Aksarka,66.56,67.8,0.39,88,0,7.72,RU,12/17/20 13:35
Port Alfred,-33.59,26.89,66.99,91,99,1.01,ZA,12/17/20 13:32
Bandarbeyla,9.49,50.81,76.46,85,100,20.62,SO,12/17/20 13:35
Henties Bay,-22.12,14.28,63.0,85,46,5.01,NA,12/17/20 13:35
Atuona,-9.8,-139.03,78.39,75,3,16.67,PF,12/17/20 13:35
Mar del Plata,-38.0,-57.56,89.6,27,0,18.34,AR,12/17/20 13:35
Ushuaia,-54.8,-68.3,41.0,80,75,33.33,AR,12/17/20 13:35
Guerrero Negro,27.98,-114.06,68.7,25,19,2.86,MX,12/17/20 13:35
Mīnāb,27.15,57.08,62.6,77,0,4.7,IR,12/17/20 13:32
Souillac,-20.52,57.52,77.0,83,75,13.87,MU,12/17/20 13:35
Geraldton,-28.77,114.6,69.8,68,0,13.87,AU,12/17/20 13:35
Ribeira Grande,38.52,-28.7,64.4,88,40,19.46,PT,12/17/20 13:35
Puerto Nariño,-3.77,-70.38,89.6,66,40,3.36,CO,12/17/20 13:35
Santa Cruz de la Sierra,-17.8,-63.17,89.6,55,40,18.34,BO,12/17/20 13:35
Zhangye,38.93,100.45,13.59,82,100,2.89,CN,12/17/20 13:35
Wattegama,6.8,81.48,75.2,100,20,3.36,LK,12/17/20 13:35
Kapaa,22.08,-159.32,77.0,78,40,11.41,US,12/17/20 13:35
Portland,45.52,-122.68,46.99,81,90,9.17,US,12/17/20 13:25
Grand Gaube,-20.01,57.66,78.01,83,30,8.01,MU,12/17/20 13:35
Pangai,-19.8,-174.35,77.0,94,90,9.17,TO,12/17/20 13:35
New Norfolk,-42.78,147.06,59.0,92,100,0.47,AU,12/17/20 13:35
Ketchikan,55.34,-131.65,35.6,93,90,5.82,US,12/17/20 13:35
Cervo,43.67,-7.41,57.0,77,84,5.01,ES,12/17/20 13:35
La Ronge,55.1,-105.28,3.2,84,100,9.17,CA,12/17/20 13:35
Nikolskoye,59.7,30.79,33.8,86,90,4.47,RU,12/17/20 13:35
Alofi,-19.06,-169.92,77.0,94,100,9.17,NU,12/17/20 13:35
Gaya,24.78,85.0,59.0,82,75,6.93,IN,12/17/20 13:35
São Filipe,14.9,-24.5,74.32,73,100,11.59,CV,12/17/20 13:35
Albany,42.6,-73.97,24.01,78,96,1.99,US,12/17/20 13:31
Partizanskoye,55.5,94.39,20.77,95,100,17.58,RU,12/17/20 13:35
Cefalù,38.04,14.02,59.0,77,91,1.99,IT,12/17/20 13:35
Butaritari,3.07,172.79,82.29,78,100,13.33,KI,12/17/20 13:35
Canary Islands,28.0,-15.5,66.99,59,40,18.34,ES,12/17/20 13:35
Sayyan,15.17,44.32,46.24,52,17,2.39,YE,12/17/20 13:31
Norman Wells,65.28,-126.83,-50.8,63,20,2.24,CA,12/17/20 13:35
Cape Town,-33.93,18.42,68.0,60,0,23.04,ZA,12/17/20 13:35
Barrow,71.29,-156.79,-9.4,76,1,16.11,US,12/17/20 13:35
Tuktoyaktuk,69.45,-133.04,-9.4,76,90,10.29,CA,12/17/20 13:35
Haines Junction,60.75,-137.51,-4.0,76,100,3.36,CA,12/17/20 13:35
Skellefteå,64.75,20.95,19.4,100,0,3.36,SE,12/17/20 13:35
Egvekinot,66.32,-179.17,-2.74,89,98,11.48,RU,12/17/20 13:35
Vila Velha,-20.33,-40.29,84.2,62,20,21.92,BR,12/17/20 13:35
Kozhva,65.11,57.05,1.83,92,0,5.35,RU,12/17/20 13:35
Alice Springs,-23.7,133.88,82.4,30,90,13.87,AU,12/17/20 13:35
Goba,7.02,39.98,48.6,51,0,3.38,ET,12/17/20 13:33
Benguela,-12.58,13.41,73.65,71,97,3.62,AO,12/17/20 13:35
Ancud,-41.87,-73.82,66.2,59,40,8.05,CL,12/17/20 13:35
Lüderitz,-26.65,15.16,69.8,64,0,25.28,NA,12/17/20 13:35
Sampit,-2.53,112.95,74.7,96,100,2.91,ID,12/17/20 13:35
Gōtsuchō,35.0,132.22,43.77,62,100,14.85,JP,12/17/20 13:35
Cayenne,4.93,-52.33,84.2,74,0,13.87,GF,12/17/20 13:35
Tsiroanomandidy,-18.77,46.03,74.5,76,54,2.17,MG,12/17/20 13:35
Lebu,-37.62,-73.65,59.88,64,100,13.0,CL,12/17/20 13:35
Kalmunai,7.42,81.82,77.7,87,100,4.88,LK,12/17/20 13:35
Sørland,67.67,12.69,37.4,64,20,10.29,NO,12/17/20 13:35
Sioux Lookout,50.1,-91.92,23.0,85,90,9.17,CA,12/17/20 13:35
Ilebo,-4.32,20.58,72.39,91,99,1.07,CD,12/17/20 13:35
Tornio,65.85,24.15,5.0,92,0,4.7,FI,12/17/20 13:35
Santa Maria,-29.68,-53.81,87.78,37,2,5.28,BR,12/17/20 13:30
Dolinsk,47.35,142.8,1.4,91,40,4.47,RU,12/17/20 13:35
Swan Hill,-35.34,143.55,56.21,68,0,13.44,AU,12/17/20 13:35
East London,-33.02,27.91,69.8,88,75,3.36,ZA,12/17/20 13:35
Villeta,5.01,-74.47,66.2,42,40,11.41,CO,12/17/20 13:33
Hithadhoo,-0.6,73.08,81.79,78,24,13.35,MV,12/17/20 13:35
Chernyshevskiy,63.01,112.47,-14.75,91,99,2.62,RU,12/17/20 13:35
Hong Kong,22.29,114.16,60.01,74,99,1.01,HK,12/17/20 13:35
Bambous Virieux,-20.34,57.76,78.01,83,75,13.87,MU,12/17/20 13:35
Kaitangata,-46.28,169.85,55.0,83,100,1.99,NZ,12/17/20 13:35
Villamartín,36.86,-5.64,55.4,87,0,3.36,ES,12/17/20 13:35
Talnakh,69.49,88.4,-0.4,84,90,35.79,RU,12/17/20 13:35
Kudahuvadhoo,2.67,72.89,82.24,69,16,7.29,MV,12/17/20 13:35
Dodola,6.98,39.18,51.42,48,14,1.72,ET,12/17/20 13:35
Airai,-8.93,125.41,61.2,100,50,2.44,TL,12/17/20 13:35
Seymchan,62.88,152.43,-22.02,85,99,0.58,RU,12/17/20 13:35
Ferkessédougou,9.6,-5.2,87.22,29,73,5.17,CI,12/17/20 13:35
Yenagoa,4.92,6.26,77.47,89,100,6.11,NG,12/17/20 13:35
Port Elizabeth,-33.92,25.57,66.2,88,20,4.7,ZA,12/17/20 13:35
Arman',59.7,150.17,-8.19,84,100,13.04,RU,12/17/20 13:35
Meulaboh,4.14,96.13,76.39,90,100,5.59,ID,12/17/20 13:35
Tasiilaq,65.61,-37.64,19.4,67,20,3.36,GL,12/17/20 13:35
Yaring,6.87,101.37,77.79,85,100,11.68,TH,12/17/20 13:35
Thunder Bay,48.4,-89.32,28.0,85,75,8.05,CA,12/17/20 13:31
Saint Paul Harbor,57.79,-152.41,39.2,86,90,18.34,US,12/17/20 13:35
Hobart,-42.88,147.33,59.0,93,90,4.7,AU,12/17/20 13:33
Pokhara,28.23,83.98,51.91,43,0,4.18,NP,12/17/20 13:35
Teluknaga,-6.1,106.64,78.01,83,20,11.41,ID,12/17/20 13:35
Longyearbyen,78.22,15.64,14.0,61,75,23.04,SJ,12/17/20 13:35
Kalmar,56.66,16.36,45.0,100,100,13.87,SE,12/17/20 13:35
Concordia,-31.39,-58.02,88.0,43,40,6.93,AR,12/17/20 13:31
Nador,35.17,-2.93,59.0,82,20,5.82,MA,12/17/20 13:35
Kostino,58.91,53.27,19.2,97,100,6.91,RU,12/17/20 13:35
Manono,-7.3,27.42,71.28,93,100,3.18,CD,12/17/20 13:35
Kieta,-6.22,155.63,79.61,78,56,3.4,PG,12/17/20 13:35
Severo-Kuril'sk,50.68,156.12,30.49,92,53,8.55,RU,12/17/20 13:35
Kyaukse,21.6,96.13,67.95,79,11,2.44,MM,12/17/20 13:35
George Town,5.41,100.34,77.0,88,40,3.36,MY,12/17/20 13:35
Province of Mantua,45.17,10.78,46.99,93,75,1.12,IT,12/17/20 13:35
Tambura,5.6,27.47,78.53,22,82,3.76,SS,12/17/20 13:35
Ostrovnoy,68.05,39.51,25.16,90,100,8.61,RU,12/17/20 13:35
Hambantota,6.12,81.12,75.2,100,20,3.36,LK,12/17/20 13:35
Mufulira,-12.55,28.24,66.42,91,100,4.21,ZM,12/17/20 13:35
Dikson,73.51,80.55,-18.92,86,100,20.98,RU,12/17/20 13:35
Pevek,69.7,170.31,9.39,90,0,13.13,RU,12/17/20 13:35
Talara,-4.58,-81.27,82.4,61,0,17.22,PE,12/17/20 13:35
Constitución,-35.33,-72.42,65.61,55,10,9.55,CL,12/17/20 13:35
Faya,18.39,42.45,57.2,93,0,1.72,SA,12/17/20 13:35
Galiākot,23.52,74.0,58.03,48,0,8.63,IN,12/17/20 13:35
Sitka,57.05,-135.33,39.2,80,90,11.41,US,12/17/20 13:35
Safford,32.83,-109.71,53.6,25,1,14.99,US,12/17/20 13:35
Bengkulu,-3.8,102.27,75.31,86,100,6.26,ID,12/17/20 13:35
Hay River,60.82,-115.8,-20.2,68,100,11.41,CA,12/17/20 13:35
Qaanaaq,77.48,-69.36,6.96,78,100,5.68,GL,12/17/20 13:35
Treinta y Tres,-33.23,-54.38,83.19,39,0,3.6,UY,12/17/20 13:35
Olafsvik,64.89,-23.71,37.2,81,100,28.5,IS,12/17/20 13:35
Praia da Vitória,38.73,-27.07,66.2,88,40,17.74,PT,12/17/20 13:35
Iqaluit,63.75,-68.51,-0.4,70,90,5.82,CA,12/17/20 13:35
Bluff,-46.6,168.33,53.01,90,100,1.01,NZ,12/17/20 13:35
Cidreira,-30.18,-50.21,74.52,74,2,17.29,BR,12/17/20 13:35
Kendari,-3.94,122.5,77.68,86,100,4.21,ID,12/17/20 13:35
Staroderevyankovskaya,46.13,38.97,30.96,96,11,2.86,RU,12/17/20 13:35
Port-Gentil,-0.72,8.78,80.6,88,75,10.29,GA,12/17/20 13:35
Mahébourg,-20.41,57.7,77.0,83,75,13.87,MU,12/17/20 13:35
Broome,42.25,-75.83,25.0,85,90,5.82,US,12/17/20 13:35
Saldanha,-33.01,17.94,75.2,53,0,18.34,ZA,12/17/20 13:35
Zhangaözen,43.3,52.8,34.02,88,100,3.47,KZ,12/17/20 13:35
Andenes,69.31,16.12,30.2,68,0,18.34,NO,12/17/20 13:35
Abu Dhabi,24.47,54.37,71.6,68,0,3.36,AE,12/17/20 13:35
Sragen,-7.43,111.02,74.03,92,100,5.46,ID,12/17/20 13:35
Samarai,-10.62,150.67,80.71,70,100,3.02,PG,12/17/20 13:35
Mehamn,71.04,27.85,14.0,78,0,12.75,NO,12/17/20 13:35
Mwinilunga,-11.74,24.43,65.41,93,100,7.78,ZM,12/17/20 13:35
Sibolga,1.74,98.78,75.22,84,100,3.44,ID,12/17/20 13:35
Kalat,29.02,66.59,36.93,66,0,1.1,PK,12/17/20 13:35
Sur,22.57,59.53,67.5,66,0,2.73,OM,12/17/20 13:35
Hadejia,12.45,10.04,74.68,20,97,8.41,NG,12/17/20 13:35
Saint-Augustin,51.23,-58.65,26.17,95,95,10.69,CA,12/17/20 13:35
Dumai,1.68,101.45,73.53,98,100,1.99,ID,12/17/20 13:34
Vestmannaeyjar,63.44,-20.27,41.0,67,40,6.93,IS,12/17/20 13:35
College,64.86,-147.8,-9.4,51,20,8.05,US,12/17/20 13:36
Cuiluan,47.72,128.65,-3.33,90,90,5.59,CN,12/17/20 13:36
Chokurdakh,70.63,147.92,-0.51,92,100,14.97,RU,12/17/20 13:36
Kalachinsk,55.05,74.58,15.98,93,99,13.44,RU,12/17/20 13:36
Chimoré,-16.98,-65.13,88.11,58,95,3.67,BO,12/17/20 13:36
Lorengau,-2.02,147.27,83.37,71,98,3.56,PG,12/17/20 13:36
Cabo San Lucas,22.89,-109.91,75.99,60,20,3.36,MX,12/17/20 13:36
Korla,41.76,86.15,18.19,87,0,0.65,CN,12/17/20 13:36
Nabire,-3.37,135.48,77.67,83,91,3.15,ID,12/17/20 13:36
Fairbanks,64.84,-147.72,-9.4,51,20,8.05,US,12/17/20 13:36
Jining,35.41,116.58,30.72,81,99,0.38,CN,12/17/20 13:36
Havøysund,71.0,24.66,23.0,73,20,11.41,NO,12/17/20 13:36
Colchester,51.89,0.9,48.0,90,100,5.01,GB,12/17/20 13:34
Havre-St-Pierre,50.23,-63.6,19.4,73,90,5.82,CA,12/17/20 13:36
Rome,43.21,-75.46,27.0,68,90,4.7,US,12/17/20 13:34
Mel'nikovo,56.56,84.08,15.01,90,100,7.0,RU,12/17/20 13:36
Aswān,24.09,32.91,62.47,47,0,10.69,EG,12/17/20 13:36
Mayor Pablo Lagerenza,-19.93,-60.77,100.6,30,91,6.67,PY,12/17/20 13:36
Aného,6.23,1.6,82.4,83,20,12.75,TG,12/17/20 13:36
Šibenik,43.73,15.91,48.0,75,0,3.36,HR,12/17/20 13:36
Vardø,70.37,31.11,19.4,79,20,8.05,NO,12/17/20 13:36
Coquimbo,-29.95,-71.34,59.0,82,75,12.75,CL,12/17/20 13:33
Kargil,34.57,76.1,3.76,60,0,2.46,IN,12/17/20 13:36
Luganville,-15.53,167.17,75.2,94,90,7.11,VU,12/17/20 13:36
Makkah al Mukarramah,21.43,39.83,72.03,59,0,7.14,SA,12/17/20 13:36
Shimoda,34.67,138.95,30.99,77,0,10.83,JP,12/17/20 13:36
Te Anau,-45.42,167.72,58.14,87,100,5.3,NZ,12/17/20 13:36
Kavaratti,10.57,72.64,82.56,66,6,2.89,IN,12/17/20 13:36
Lompoc,34.64,-120.46,55.99,93,90,6.93,US,12/17/20 13:36
Richards Bay,-28.78,32.04,72.25,84,100,1.66,ZA,12/17/20 13:36
Neuquén,-38.95,-68.06,87.8,14,0,14.99,AR,12/17/20 13:36
Tura,25.52,90.22,56.77,60,0,1.39,IN,12/17/20 13:36
Zlobin,45.29,14.65,43.0,100,87,1.01,HR,12/17/20 13:36
Grindavik,63.84,-22.43,39.2,68,0,25.28,IS,12/17/20 13:36
Iisaku Parish,59.1,27.31,33.17,96,100,2.42,EE,12/17/20 13:36
Fagernes,60.99,9.23,28.99,96,100,0.56,NO,12/17/20 13:36
Mandalgovi,45.76,106.27,-3.59,86,0,5.68,MN,12/17/20 13:36
Bosaso,11.28,49.18,78.15,78,36,12.84,SO,12/17/20 13:36
Yanji,42.91,129.51,13.24,85,0,9.78,CN,12/17/20 13:36
Restrepo,3.82,-76.52,84.2,54,75,2.24,CO,12/17/20 13:36
Plaster Rock,46.91,-67.39,8.6,65,40,5.82,CA,12/17/20 13:36
Vao,-22.67,167.48,75.6,75,99,17.45,NC,12/17/20 13:36
Kavieng,-2.57,150.8,83.19,75,100,8.95,PG,12/17/20 13:36
Mâncio Lima,-7.61,-72.9,91.4,55,75,5.82,BR,12/17/20 13:36
Hargeisa,9.56,44.06,60.22,73,49,8.86,SO,12/17/20 13:36
Garden City,42.33,-83.33,30.99,80,90,6.93,US,12/17/20 13:32
Palmdale,34.58,-118.12,61.0,31,1,23.04,US,12/17/20 13:33
Kamenka,51.32,42.77,28.0,94,100,8.77,RU,12/17/20 13:36
Arraial do Cabo,-22.97,-42.03,84.2,74,0,8.05,BR,12/17/20 13:36
Nishihara,26.18,127.76,62.6,77,90,13.87,JP,12/17/20 13:36
The Valley,18.22,-63.06,86.0,78,40,14.99,AI,12/17/20 13:36
Aykhal,66.0,111.5,-31.0,73,0,2.24,RU,12/17/20 13:36
Sept-Îles,50.2,-66.38,16.0,56,6,2.24,CA,12/17/20 13:36
Dandong,40.13,124.39,17.71,83,0,4.99,CN,12/17/20 13:36
Esperance,-33.87,121.9,51.8,81,1,6.93,AU,12/17/20 13:36
Ajaigarh,24.9,80.27,50.49,48,0,3.13,IN,12/17/20 13:36
Luangwa,-15.62,30.42,75.65,81,100,2.13,ZM,12/17/20 13:36
Nuuk,64.18,-51.72,26.6,79,75,4.7,GL,12/17/20 13:36
Praia,14.92,-23.51,75.2,69,75,19.46,CV,12/17/20 13:36
Wajima,37.4,136.9,42.51,72,100,11.41,JP,12/17/20 13:36
Lac du Bonnet,50.25,-96.06,26.6,100,79,6.93,CA,12/17/20 13:36
Bichura,50.59,107.6,-1.52,81,21,3.51,RU,12/17/20 13:36
Celestún,20.87,-90.4,76.6,74,46,18.77,MX,12/17/20 13:36
Muros,42.78,-9.06,54.0,92,100,5.99,ES,12/17/20 13:36
Carlyle,38.61,-89.37,33.01,69,0,5.01,US,12/17/20 13:36
Russkiy Kameshkir,52.86,46.09,24.12,98,100,11.39,RU,12/17/20 13:36
Tomatlán,19.93,-105.25,85.06,41,0,6.89,MX,12/17/20 13:36
Rio Claro,-22.41,-47.56,86.0,58,40,3.36,BR,12/17/20 13:32
Prince Rupert,54.32,-130.32,42.8,75,90,5.82,CA,12/17/20 13:36
Faanui,-16.48,-151.75,80.02,78,74,17.54,PF,12/17/20 13:36
Altay,47.87,88.12,4.17,73,0,2.71,CN,12/17/20 13:36
Gomoh,23.87,86.17,59.72,55,0,6.11,IN,12/17/20 13:35
Kruisfontein,-34.0,24.73,69.01,79,55,3.0,ZA,12/17/20 13:36
Masumbwe,-3.63,32.18,68.16,82,100,1.28,TZ,12/17/20 13:31
Ingham,42.6,-84.38,30.2,80,90,3.36,US,12/17/20 13:36
Zeya,53.75,127.27,-8.03,79,100,6.85,RU,12/17/20 13:36
Tuatapere,-46.13,167.68,53.01,90,100,1.01,NZ,12/17/20 13:36
Tegul'det,57.31,88.17,13.87,95,100,11.01,RU,12/17/20 13:36
Bemidji,47.47,-94.88,30.99,79,90,6.93,US,12/17/20 13:36
Bathsheba,13.22,-59.52,86.0,70,40,19.46,BB,12/17/20 13:36
Buraidah,26.33,43.98,60.8,77,40,6.93,SA,12/17/20 13:36
Bayevo,53.28,80.77,13.71,93,100,13.85,RU,12/17/20 13:36
Namatanai,-3.67,152.43,80.08,81,87,5.73,PG,12/17/20 13:36
Padang,-0.95,100.35,76.78,77,100,3.0,ID,12/17/20 13:36
Yumen,40.28,97.2,13.39,83,100,3.96,CN,12/17/20 13:36
Pacific Grove,36.62,-121.92,53.6,87,75,12.75,US,12/17/20 13:36
Hasaki,35.73,140.83,28.4,79,20,2.24,JP,12/17/20 13:36
Copiapó,-27.37,-70.33,66.2,68,75,8.05,CL,12/17/20 13:36
Srednekolymsk,67.45,153.68,-18.8,87,100,7.49,RU,12/17/20 13:36
Staryy Nadym,65.61,72.68,8.35,93,92,19.24,RU,12/17/20 13:36
Gondanglegi,-7.75,112.01,74.68,89,99,2.42,ID,12/17/20 13:36
Ouadda,8.08,22.4,73.02,23,100,5.79,CF,12/17/20 13:36
Ajdabiya,30.76,20.23,61.16,67,2,4.16,LY,12/17/20 13:36
Gazli,40.13,63.45,28.71,85,41,10.78,UZ,12/17/20 13:36
Tevriz,57.51,72.4,17.37,97,100,7.49,RU,12/17/20 13:36
Enshi,30.3,109.48,36.32,80,31,0.98,CN,12/17/20 13:36
Córdoba,-31.41,-64.18,96.01,28,0,16.11,AR,12/17/20 13:36
Itarema,-2.92,-39.92,84.16,67,100,16.15,BR,12/17/20 13:36
Gemena,3.25,19.77,79.72,30,100,1.61,CD,12/17/20 13:36
Bolobo,-2.17,16.23,72.61,87,100,2.66,CD,12/17/20 13:36
Tarbagatay,51.48,107.36,-22.0,74,88,4.47,RU,12/17/20 13:36
Grafton,42.21,-71.69,21.99,79,90,19.46,US,12/17/20 13:36
Torbay,47.67,-52.73,32.0,80,90,11.41,CA,12/17/20 13:36
Rørvik,64.86,11.24,39.2,69,40,12.75,NO,12/17/20 13:36
Beringovskiy,63.05,179.32,21.87,96,100,25.26,RU,12/17/20 13:36
Shahreza,32.03,51.88,42.58,82,65,1.83,IR,12/17/20 13:36
Benjamín Hill,30.17,-111.1,70.0,16,96,1.99,MX,12/17/20 13:36
Thompson,55.74,-97.86,-13.0,83,90,3.76,CA,12/17/20 13:35
Launceston,-41.45,147.17,59.0,100,90,10.29,AU,12/17/20 13:36
San Jerónimo,-11.95,-75.28,59.47,51,99,4.74,PE,12/17/20 13:36
Vila do Maio,15.13,-23.22,75.2,69,75,19.46,CV,12/17/20 13:36
Maïné Soroa,13.21,12.02,73.71,21,0,9.51,NE,12/17/20 13:36
Umluj,25.02,37.27,71.19,53,99,13.6,SA,12/17/20 13:36
Poum,-20.23,164.02,77.97,72,100,14.47,NC,12/17/20 13:36
Merauke,-8.47,140.33,78.57,83,100,7.09,ID,12/17/20 13:36
Nanortalik,60.14,-45.24,30.67,90,92,4.68,GL,12/17/20 13:36
Rundu,-17.93,19.77,77.23,54,23,5.5,NA,12/17/20 13:36
Tateyama,34.98,139.87,39.2,48,20,5.82,JP,12/17/20 13:32
Chantada,42.61,-7.77,52.0,88,68,5.99,ES,12/17/20 13:36
Bara,10.37,10.73,77.09,20,82,7.92,NG,12/17/20 13:36
Westport,41.14,-73.36,32.0,68,90,16.11,US,12/17/20 13:36
Makakilo City,21.35,-158.09,75.0,94,20,3.36,US,12/17/20 13:33
Fort-Shevchenko,44.51,50.26,36.45,84,100,5.91,KZ,12/17/20 13:36
Port Blair,11.67,92.75,80.37,83,100,9.75,IN,12/17/20 13:36
Carnarvon,-24.87,113.63,71.6,88,0,18.34,AU,12/17/20 13:35
Gimli,50.63,-96.99,26.6,92,48,9.17,CA,12/17/20 13:36
Yulara,-25.24,130.99,78.8,41,99,14.99,AU,12/17/20 13:36
Ipaba,-19.41,-42.42,82.11,66,66,6.38,BR,12/17/20 13:36
Sokoni,-6.43,39.55,80.6,83,20,9.17,TZ,12/17/20 13:36
Marsh Harbour,26.54,-77.06,77.76,77,3,16.08,BS,12/17/20 13:36
Yerbogachën,61.28,108.01,-7.65,89,100,6.38,RU,12/17/20 13:36
Kaseda-shirakame,31.42,130.32,32.0,66,47,10.0,JP,12/17/20 13:36
Cuyamel,15.67,-88.2,84.99,74,40,6.93,HN,12/17/20 13:36
Sabang,5.89,95.32,81.03,79,99,14.16,ID,12/17/20 13:36
Villa Unión,23.2,-106.23,75.2,64,20,5.3,MX,12/17/20 13:36
Urdoma,61.75,48.54,19.83,96,100,10.67,RU,12/17/20 13:36
Fortuna,40.6,-124.16,52.0,87,20,9.17,US,12/17/20 13:36
Margate,51.38,1.39,50.0,82,100,3.0,GB,12/17/20 13:36
Husavik,66.04,-17.34,33.8,91,90,11.41,IS,12/17/20 13:36
Elizabeth City,36.29,-76.25,46.4,65,1,8.05,US,12/17/20 13:36
Great Falls,47.5,-111.3,46.4,45,1,27.51,US,12/17/20 13:36
San Carlos,9.66,-68.58,88.95,50,38,3.62,VE,12/17/20 13:36
Najrān,17.49,44.13,60.8,31,0,0.65,SA,12/17/20 13:36
Zhuhai,22.28,113.57,59.0,71,40,11.41,CN,12/17/20 13:36
Huarmey,-10.07,-78.15,74.1,68,71,10.65,PE,12/17/20 13:36
Ponta do Sol,32.67,-17.1,64.4,63,40,3.36,PT,12/17/20 13:36
Volda,62.15,6.07,48.2,70,40,23.04,NO,12/17/20 13:36
Petropavlovsk-Kamchatskiy,53.05,158.65,8.6,92,99,2.24,RU,12/17/20 13:36
Casian,11.04,119.71,82.17,77,100,20.78,PH,12/17/20 13:36
Bichena,10.45,38.2,55.0,38,11,5.35,ET,12/17/20 13:36
Chui,-33.7,-53.46,78.55,60,5,12.21,UY,12/17/20 13:36
Alenquer,-1.94,-54.74,89.6,62,20,10.29,BR,12/17/20 13:36
Bontang,0.13,117.5,77.29,85,100,4.94,ID,12/17/20 13:36
Tūkrah,32.53,20.58,59.32,74,1,6.46,LY,12/17/20 13:36
Kasempa,-13.46,25.83,67.08,91,100,4.16,ZM,12/17/20 13:36
Strizhi,58.46,49.29,21.09,98,100,6.38,RU,12/17/20 13:36
San Cristobal,7.77,-72.22,86.0,62,40,10.29,VE,12/17/20 13:36
Baruun-Urt,46.68,113.28,-9.9,81,0,6.02,MN,12/17/20 13:36
West Freehold,40.24,-74.3,34.0,95,90,13.87,US,12/17/20 13:36
Buala,-8.14,159.59,80.29,80,76,2.64,SB,12/17/20 13:36
Thinadhoo,0.53,72.93,81.63,77,0,10.69,MV,12/17/20 13:36
Magdiwang,12.49,122.51,80.04,79,100,17.47,PH,12/17/20 13:36
Touros,-5.2,-35.46,84.2,70,75,17.22,BR,12/17/20 13:36
Zhigalovo,54.81,105.16,-5.1,88,100,2.21,RU,12/17/20 13:36
Marzuq,14.4,46.47,57.78,81,0,4.88,YE,12/17/20 13:36
San Ignacio,17.16,-89.07,86.0,66,40,6.93,BZ,12/17/20 13:36
São Félix do Xingu,-6.64,-51.99,92.35,47,36,3.11,BR,12/17/20 13:36
Cherskiy,68.75,161.3,-20.04,88,86,2.3,RU,12/17/20 13:36
Pangnirtung,66.15,-65.71,1.4,77,90,6.93,CA,12/17/20 13:36
Desaguadero,-16.57,-69.04,58.39,43,39,11.54,PE,12/17/20 13:36
Grand-Santi,4.25,-54.38,88.36,54,91,6.11,GF,12/17/20 13:36
Sakaiminato,35.55,133.23,39.2,72,75,14.99,JP,12/17/20 13:33
Mareeba,-17.0,145.43,78.8,78,40,3.36,AU,12/17/20 13:36
Selma,36.57,-119.61,51.8,100,90,3.36,US,12/17/20 13:34
Mossamedes,-15.2,12.15,67.06,79,87,8.25,AO,12/17/20 13:36
Maningrida,-12.07,134.27,78.22,87,100,4.03,AU,12/17/20 13:36
Mana,5.66,-53.78,82.65,73,100,10.47,GF,12/17/20 13:36
Kushālgarh,23.2,74.45,61.41,43,4,10.13,IN,12/17/20 13:36
Amfiklia,38.63,22.58,55.0,84,4,4.0,GR,12/17/20 13:36
Ucluelet,48.93,-125.55,45.0,87,75,10.29,CA,12/17/20 13:34
Tautira,-17.73,-149.15,84.2,66,20,4.7,PF,12/17/20 13:36
Kumluca,36.37,30.29,60.67,53,0,5.14,TR,12/17/20 13:36
Vanavara,60.34,102.28,-6.5,91,100,5.12,RU,12/17/20 13:36
Hrubieszów,50.8,23.89,33.55,93,97,5.91,PL,12/17/20 13:36
Katsuura,35.13,140.3,39.2,48,20,5.82,JP,12/17/20 13:36
Karratha,-20.74,116.85,83.25,71,0,12.15,AU,12/17/20 13:36
Dunda,-8.12,34.25,72.72,63,44,3.15,TZ,12/17/20 13:36
Tayu,-6.54,111.05,75.29,92,100,4.7,ID,12/17/20 13:36
Piro,25.33,84.42,54.64,41,8,7.34,IN,12/17/20 13:36
Tambacounda,13.75,-13.76,95.0,14,0,4.7,SN,12/17/20 13:36
Magrath,49.42,-112.87,41.0,60,0,27.51,CA,12/17/20 13:36
Ribeirão Bonito,-22.07,-48.18,79.3,72,54,5.39,BR,12/17/20 13:36
Abalak,58.13,68.59,12.78,97,80,6.4,RU,12/17/20 13:36
Ulaanbaatar,47.91,106.88,-27.4,67,0,3.36,MN,12/17/20 13:36
Sola,-13.88,167.55,78.8,94,90,11.3,VU,12/17/20 13:36
Nebolchi,59.12,33.35,29.26,97,100,5.57,RU,12/17/20 13:36
Lerwick,60.15,-1.15,48.2,87,40,13.87,GB,12/17/20 13:36
Pambuhan,13.97,123.08,78.13,85,57,13.18,PH,12/17/20 13:36
Gushikawa,26.35,127.87,62.6,87,90,10.29,JP,12/17/20 13:36
Ylivieska,64.08,24.55,27.0,92,3,1.99,FI,12/17/20 13:36
Mandera,3.94,41.87,86.29,29,0,10.04,KE,12/17/20 13:36
Oranjestad,12.52,-70.03,86.0,66,40,20.8,AW,12/17/20 13:36
Eureka,40.8,-124.16,50.0,88,27,5.01,US,12/17/20 13:33
Saint George,37.1,-113.58,35.6,47,90,5.82,US,12/17/20 13:36
Pierre,44.37,-100.35,33.8,69,1,5.82,US,12/17/20 13:35
Kaniama,-7.57,24.18,66.38,96,100,1.48,CD,12/17/20 13:36
Udangudi,8.43,78.02,76.75,86,100,14.83,IN,12/17/20 13:36
Lewisporte,49.25,-55.05,30.2,92,90,10.29,CA,12/17/20 13:36
Cap Malheureux,-19.98,57.61,78.01,83,23,8.01,MU,12/17/20 13:36
Den Helder,52.96,4.76,48.2,93,90,19.46,NL,12/17/20 13:36
Siocon,7.71,122.14,78.69,83,100,11.9,PH,12/17/20 13:36
Aklavik,68.22,-135.01,-32.8,66,20,4.7,CA,12/17/20 13:36
Rayong,12.83,101.43,79.0,83,20,4.7,TH,12/17/20 13:35
Lata,40.16,-8.33,55.4,87,0,2.24,PT,12/17/20 13:36
Trairi,-3.28,-39.27,84.45,66,100,12.86,BR,12/17/20 13:36
Hofn,64.25,-15.21,42.8,84,75,16.11,IS,12/17/20 13:36
Santa Rita do Passa Quatro,-21.71,-47.48,86.0,58,40,3.36,BR,12/17/20 13:36
Jiuquan,39.74,98.52,13.71,83,100,2.68,CN,12/17/20 13:36
Esfarāyen,37.08,57.51,37.4,86,75,2.24,IR,12/17/20 13:36
Port Macquarie,-31.43,152.92,71.6,100,90,5.82,AU,12/17/20 13:35
Okha,53.57,142.95,14.49,95,100,18.79,RU,12/17/20 13:36
Teguise,29.06,-13.56,66.2,55,20,17.22,ES,12/17/20 13:36
Yar-Sale,66.83,70.83,0.55,90,100,21.85,RU,12/17/20 13:36
Dawson,31.77,-84.45,42.8,75,90,11.41,US,12/17/20 13:36
Moranbah,-22.0,148.05,77.02,81,21,0.76,AU,12/17/20 13:36
Ambilobe,-13.2,49.05,76.41,86,21,2.28,MG,12/17/20 13:36
Saint-Pierre,-21.34,55.48,77.0,83,20,14.99,RE,12/17/20 13:36
Amarpur,25.03,86.9,58.33,49,0,6.33,IN,12/17/20 13:36
Harper,4.38,-7.72,80.2,79,16,6.51,LR,12/17/20 13:33
Riosucio,5.42,-75.7,78.8,61,40,6.93,CO,12/17/20 13:32
Maamba,-17.37,27.15,73.54,83,100,3.15,ZM,12/17/20 13:36
Atambua,-9.11,124.89,75.06,89,44,1.05,ID,12/17/20 13:36
Dingle,11.0,122.67,74.48,90,100,8.97,PH,12/17/20 13:36
Salalah,17.02,54.09,77.0,69,75,11.41,OM,12/17/20 13:36
Hirado,33.36,129.55,37.99,28,47,10.09,JP,12/17/20 13:36
Pangody,65.85,74.49,8.89,94,100,18.95,RU,12/17/20 13:36
Narsaq,60.92,-46.05,42.8,33,75,14.99,GL,12/17/20 13:36
Liverpool,53.41,-2.98,50.0,87,20,13.87,GB,12/17/20 13:34
Kysyl-Syr,63.9,122.76,-39.41,80,32,4.36,RU,12/17/20 13:36
Port Moresby,-9.44,147.18,75.2,100,40,3.36,PG,12/17/20 13:36
Tingo María,-9.29,-76.01,78.8,78,75,2.24,PE,12/17/20 13:36
Ilulissat,69.22,-51.1,17.6,78,75,8.05,GL,12/17/20 13:36
‘Āhuimanu,21.44,-157.84,75.2,78,40,11.41,US,12/17/20 13:36
Chany,55.31,76.76,13.6,94,100,13.87,RU,12/17/20 13:36
Zhigansk,66.77,123.37,-40.07,81,75,2.13,RU,12/17/20 13:36
Shelopugino,51.65,117.56,-12.14,78,0,5.48,RU,12/17/20 13:36
Anadyr,64.75,177.48,14.0,72,20,13.42,RU,12/17/20 13:36
Darnah,32.77,22.64,62.01,72,99,8.48,LY,12/17/20 13:36
Chute-aux-Outardes,49.12,-68.4,10.4,60,1,5.82,CA,12/17/20 13:36
Singureni,44.23,25.94,39.99,82,100,1.74,RO,12/17/20 13:36
Noumea,-22.28,166.46,71.6,78,90,1.12,NC,12/17/20 13:36
Qui Nhon,13.77,109.23,74.43,88,98,18.77,VN,12/17/20 13:36
Comodoro Rivadavia,-45.87,-67.5,80.6,30,0,12.75,AR,12/17/20 13:36
Riorges,46.04,4.05,48.0,87,0,2.57,FR,12/17/20 13:36
Hammerfest,70.66,23.68,21.2,62,0,26.4,NO,12/17/20 13:36
Fasano,40.83,17.36,48.2,100,75,4.7,IT,12/17/20 13:34
Honningsvåg,70.98,25.97,23.0,73,20,11.41,NO,12/17/20 13:36
Cortez,37.35,-108.59,33.01,63,1,5.82,US,12/17/20 13:36
Dunedin,-45.87,170.5,55.0,83,100,5.99,NZ,12/17/20 13:31
Sobolevo,54.43,31.9,33.64,96,100,7.11,RU,12/17/20 13:36
Southbridge,42.08,-72.03,25.0,80,100,3.0,US,12/17/20 13:32
Ust-Kuyga,70.02,135.6,-30.98,82,100,3.74,RU,12/17/20 13:36
José Bonifácio,-21.05,-49.69,89.6,46,40,5.82,BR,12/17/20 13:36
Hamilton,39.18,-84.53,34.0,74,90,5.82,US,12/17/20 13:34
Khani,41.96,42.96,44.6,93,75,2.24,GE,12/17/20 13:36
Burnie,-41.07,145.92,53.01,80,29,14.0,AU,12/17/20 13:36
Raja,8.46,25.68,72.66,22,100,5.48,SS,12/17/20 13:36
Kiryat Gat,31.61,34.76,57.0,100,5,2.19,IL,12/17/20 13:36
The Pas,53.83,-101.25,3.2,84,90,10.29,CA,12/17/20 13:36
Kumul,42.8,93.45,17.2,75,100,3.87,CN,12/17/20 13:36
Gold Coast,-28.0,153.43,73.4,94,40,8.05,AU,12/17/20 13:36
Seoul,37.57,126.98,30.2,63,90,2.91,KR,12/17/20 13:31
Hurricane,37.18,-113.29,37.4,47,90,5.82,US,12/17/20 13:36
Santa Vitória,-18.84,-50.12,93.22,35,38,7.65,BR,12/17/20 13:36
Jiutai,44.15,125.83,8.6,55,0,8.95,CN,12/17/20 13:36
Santa Isabel,-23.32,-46.22,86.0,48,75,8.05,BR,12/17/20 13:36
Shenjiamen,29.96,122.3,50.99,69,100,14.92,CN,12/17/20 13:36
Beloha,-25.17,45.05,75.83,78,94,3.29,MG,12/17/20 13:36
Kutum,14.2,24.67,58.87,33,43,10.11,SD,12/17/20 13:36
Adrar,20.5,-10.07,69.76,30,0,11.03,MR,12/17/20 13:36
Troina,37.79,14.6,55.0,93,57,1.32,IT,12/17/20 13:36
Novikovo,51.15,37.89,31.96,98,100,6.71,RU,12/17/20 13:36
Esso,55.93,158.7,11.62,90,98,2.1,RU,12/17/20 13:36
Vilyuysk,63.76,121.62,-39.01,81,18,4.59,RU,12/17/20 13:36
Krutinka,56.01,71.51,13.91,96,91,13.51,RU,12/17/20 13:36
Aguacatán,15.34,-91.31,71.6,53,75,5.82,GT,12/17/20 13:36
Malinyi,-8.93,36.13,77.38,67,9,2.24,TZ,12/17/20 13:36
Biak,-0.91,122.88,78.93,74,100,3.83,ID,12/17/20 13:36
Belyy Yar,53.6,91.39,26.6,63,0,8.95,RU,12/17/20 13:36
Los Llanos de Aridane,28.66,-17.92,66.2,68,20,17.22,ES,12/17/20 13:36
Boysun,38.21,67.2,29.59,63,0,7.31,UZ,12/17/20 13:36
Dubti,11.74,41.09,74.35,53,0,12.01,ET,12/17/20 13:36
Tocopilla,-22.09,-70.2,71.58,52,76,8.52,CL,12/17/20 13:36
Leh,34.17,77.58,0.88,54,41,2.19,IN,12/17/20 13:36
Shellbrook,53.22,-106.4,14.0,85,90,16.11,CA,12/17/20 13:36
Orange Cove,36.62,-119.31,54.0,100,90,3.36,US,12/17/20 13:36
Río Gallegos,-51.62,-69.22,57.2,30,75,34.45,AR,12/17/20 13:34
Potsdam,52.4,13.07,45.0,95,0,1.01,DE,12/17/20 13:36
Northam,51.03,-4.22,54.0,92,100,15.99,GB,12/17/20 13:36
Luanda,-8.84,13.23,78.8,74,20,8.05,AO,12/17/20 13:31
Muravlenko,63.79,74.52,6.42,94,97,17.34,RU,12/17/20 13:36
Ladovskaya Balka,45.63,41.4,34.43,88,86,0.85,RU,12/17/20 13:36
Nazarovo,56.01,90.39,16.43,96,100,11.92,RU,12/17/20 13:36
São João da Barra,-21.64,-41.05,84.2,58,40,20.8,BR,12/17/20 13:36
Svay Rieng,11.09,105.8,74.59,78,74,6.6,KH,12/17/20 13:36
Klaksvík,62.23,-6.59,44.6,87,0,13.87,FO,12/17/20 13:36
Owando,-0.48,15.9,72.36,94,87,3.15,CG,12/17/20 13:36
Boyuibe,-20.42,-63.28,77.0,65,90,5.86,BO,12/17/20 13:36
Quelimane,-17.88,36.89,84.2,79,20,13.87,MZ,12/17/20 13:36
Gravdal,68.12,13.5,33.8,59,0,12.75,NO,12/17/20 13:36
Fort Nelson,58.81,-122.7,-16.6,62,90,6.93,CA,12/17/20 13:36
Khanpur,28.65,70.66,49.77,42,0,3.58,PK,12/17/20 13:36
Jūybār,36.64,52.91,50.0,93,75,4.7,IR,12/17/20 13:36
Sambava,-14.27,50.17,77.59,83,0,8.77,MG,12/17/20 13:36
Bayangol,50.7,103.47,-15.48,86,9,2.75,RU,12/17/20 13:36
Örnsköldsvik,63.29,18.72,32.0,98,90,6.93,SE,12/17/20 13:36
Kwang Binh,17.48,106.6,64.11,89,100,8.37,VN,12/17/20 13:36
Batemans Bay,-35.72,150.18,70.0,97,1,4.63,AU,12/17/20 13:36
Chamba,32.57,76.13,41.41,46,0,10.4,IN,12/17/20 13:36
Matara,5.95,80.54,75.78,85,38,3.18,LK,12/17/20 13:36
Merritt Island,28.54,-80.67,62.6,93,90,10.29,US,12/17/20 13:36
Alliston,44.15,-79.87,25.0,57,0,5.82,CA,12/17/20 13:34
Isangel,-19.55,169.27,76.24,76,8,11.27,VU,12/17/20 13:36
Portobelo,9.55,-79.65,90.0,81,9,10.0,PA,12/17/20 13:36
Am Timan,11.03,20.28,75.51,19,74,4.94,TD,12/17/20 13:36
Talavera,15.62,120.93,75.2,94,90,2.24,PH,12/17/20 13:36
Kanasín,20.93,-89.57,77.0,78,90,11.41,MX,12/17/20 13:36
Solwezi,-12.17,26.39,64.36,95,100,4.68,ZM,12/17/20 13:36
Punta Alta,-38.88,-62.07,82.22,30,93,20.36,AR,12/17/20 13:36
Piney Green,34.72,-77.32,48.2,75,75,8.05,US,12/17/20 13:36
Suna,57.83,50.06,20.53,97,88,8.55,RU,12/17/20 13:36
Port Hedland,-20.32,118.57,82.4,83,40,14.99,AU,12/17/20 13:36
Orašac,44.63,16.07,43.43,79,15,1.36,BA,12/17/20 13:36
Bijni,26.5,90.7,60.21,68,0,3.06,IN,12/17/20 13:36
Clyde River,70.47,-68.59,-5.8,70,1,9.17,CA,12/17/20 13:36
Birin,26.89,88.07,43.07,89,0,3.44,NP,12/17/20 13:36
Saint-Paul,-21.01,55.27,77.0,73,0,16.11,RE,12/17/20 13:36
Lázaro Cárdenas,17.96,-102.2,82.65,56,0,5.79,MX,12/17/20 13:36
Mvuma,-19.28,30.53,67.17,88,100,8.88,ZW,12/17/20 13:36
Skjervøy,70.03,20.97,21.2,57,0,17.22,NO,12/17/20 13:36
Dogondoutchi,13.64,4.03,79.3,17,0,6.49,NE,12/17/20 13:36
Departamento de Maldonado,-34.67,-54.92,84.2,39,20,11.41,UY,12/17/20 13:36
San Nicolas,18.17,120.6,80.6,74,75,5.82,PH,12/17/20 13:36
Cloquet,46.72,-92.46,27.0,68,1,4.7,US,12/17/20 13:36
Ushirombo,-3.49,31.96,66.7,83,100,1.36,TZ,12/17/20 13:32
Mokhsogollokh,61.47,128.92,-25.31,83,100,8.28,RU,12/17/20 13:36
Deputatsky,69.3,139.9,-15.86,91,99,2.44,RU,12/17/20 13:36
Murray Bridge,-35.12,139.27,55.0,71,62,1.99,AU,12/17/20 13:36
Bāfq,31.61,55.41,52.75,44,97,5.14,IR,12/17/20 13:36
Safaga,26.73,33.94,65.66,62,17,16.58,EG,12/17/20 13:36
Taksimo,56.34,114.88,-11.58,79,100,2.53,RU,12/17/20 13:36
Mayumba,-3.43,10.66,75.15,86,100,3.38,GA,12/17/20 13:36
Okhotsk,59.38,143.3,-11.2,83,82,15.79,RU,12/17/20 13:36
Maragogi,-9.01,-35.22,81.39,72,0,13.98,BR,12/17/20 13:35
Goderich,43.75,-81.72,26.6,79,100,8.05,CA,12/17/20 13:36
Sa Kaeo,13.75,102.33,72.41,76,27,5.79,TH,12/17/20 13:36
Kisangani,0.52,25.2,76.84,58,98,1.7,CD,12/17/20 13:36
Abu Samrah,35.3,37.18,52.84,78,0,4.63,SY,12/17/20 13:36
Falmouth,50.15,-5.07,51.8,100,100,26.4,GB,12/17/20 13:36
Indianola,41.36,-93.56,30.0,83,93,5.7,US,12/17/20 13:33
Mackenzie,55.3,-123.17,17.6,92,90,4.7,CA,12/17/20 13:36
La Rioja,42.25,-2.5,48.0,87,20,4.7,ES,12/17/20 13:36
Cumberland,35.05,-78.87,50.0,70,40,3.51,US,12/17/20 13:36
Mulegé,26.88,-111.98,70.79,22,0,6.4,MX,12/17/20 13:36
Port Hardy,50.7,-127.42,44.6,87,75,6.93,CA,12/17/20 13:36
Chitral,35.85,71.79,21.34,48,0,9.04,PK,12/17/20 13:36
Tuensang,26.28,94.83,51.3,82,3,1.72,IN,12/17/20 13:36
Altamira,-3.2,-52.21,89.6,66,40,6.93,BR,12/17/20 13:36
